City,Cloudiness,Country,Date,Humidity,Lat,Lng,Max Temp,Wind Speed
Cape Town,19,ZA,1595951511,58,-33.93,18.42,61.0,19.46
Bluff,100,NZ,1595951512,85,-46.6,168.33,43.0,11.72
Thompson,90,CA,1595951432,93,55.74,-97.86,59.0,5.82
Bambous Virieux,40,MU,1595951512,78,-20.34,57.76,71.6,8.05
Jalu,0,LY,1595951512,19,29.03,21.55,97.54,11.59
Jamestown,20,US,1595951512,60,42.1,-79.24,79.0,8.05
Butaritari,100,KI,1595951512,78,3.07,172.79,83.25,16.33
Yangi Marg`ilon,70,UZ,1595951513,35,40.43,71.72,86.0,12.46
Tiksi,100,RU,1595951513,85,71.69,128.87,40.14,10.63
Port Alfred,0,ZA,1595951513,67,-33.59,26.89,62.38,7.81
Longyearbyen,75,SJ,1595951513,55,78.22,15.64,64.4,9.17
Muroto-misakicho,85,JP,1595951513,91,33.28,134.15,79.16,4.61
Bengkulu,78,ID,1595951514,88,-3.8,102.27,76.3,6.93
Busselton,92,AU,1595951514,89,-33.65,115.33,51.01,6.6
Puerto Colombia,20,CO,1595951514,70,10.99,-74.95,86.0,3.36
Tuktoyaktuk,90,CA,1595951514,93,69.45,-133.04,48.2,4.7
Dīglūr,74,IN,1595951514,76,18.55,77.6,81.55,4.52
Calama,0,CL,1595951514,3,-22.47,-68.93,62.6,17.22
Maniitsoq,100,GL,1595951514,94,65.42,-52.9,45.0,5.23
Shādegān,4,IR,1595951515,67,30.65,48.66,105.8,11.41
Changzhou,100,CN,1595951515,86,31.78,119.97,81.0,5.44
Esperance,75,AU,1595951515,100,-33.87,121.9,50.0,8.05
Darnah,0,LY,1595951515,69,32.77,22.64,80.47,17.05
Rikitea,86,PF,1595951515,77,-23.12,-134.97,72.1,17.58
Strezhevoy,31,RU,1595951516,76,60.73,77.59,53.6,4.92
Meulaboh,100,ID,1595951516,91,4.14,96.13,74.07,9.75
Thinadhoo,71,MV,1595951516,77,0.53,72.93,82.62,11.16
Mahébourg,40,MU,1595951516,78,-20.41,57.7,71.6,8.05
Kholm,100,RU,1595951517,90,59.27,32.85,67.12,7.96
Ushuaia,75,AR,1595951247,88,-54.8,-68.3,33.8,35.57
Punta Arenas,8,CL,1595951383,64,-53.15,-70.92,39.2,26.4
Itoman,20,JP,1595951517,94,26.12,127.67,82.4,6.93
Liwale,82,TZ,1595951517,42,-9.77,37.93,77.04,4.0
Powell River,75,CA,1595951348,82,49.85,-124.54,64.4,6.93
Lüderitz,0,NA,1595951518,60,-26.65,15.16,69.8,17.22
Kapaa,75,US,1595951518,78,22.08,-159.32,78.8,18.34
Bredasdorp,98,ZA,1595951518,67,-34.53,20.04,59.0,6.93
Alice Springs,0,AU,1595951518,52,-23.7,133.88,41.0,4.7
Arraial do Cabo,0,BR,1595951518,45,-22.97,-42.03,84.2,10.29
Hermanus,99,ZA,1595951518,85,-34.42,19.23,55.99,5.03
Fare,74,PF,1595951519,79,-16.7,-151.02,78.6,19.51
Talaya,100,RU,1595951519,83,61.38,152.75,61.0,2.84
Lebu,0,CL,1595951519,68,-37.62,-73.65,48.27,13.6
Atuona,6,PF,1595951519,69,-9.8,-139.03,79.65,24.4
Saint-Augustin,96,CA,1595951519,69,51.23,-58.65,62.01,10.78
Severo-Kuril'sk,96,RU,1595951520,90,50.68,156.12,51.17,16.37
Fairbanks,90,US,1595951520,93,64.84,-147.72,54.0,10.27
Mezen',3,RU,1595951520,61,65.85,44.24,65.12,7.65
Souillac,40,MU,1595951520,78,-20.52,57.52,71.6,8.05
Mossamedes,20,AO,1595951520,68,-15.2,12.15,71.6,9.17
Saint Paul Harbor,1,US,1595951520,81,57.79,-152.41,53.6,5.82
Jatiroto,1,ID,1595951521,87,-7.88,111.12,68.95,2.53
Cidreira,100,BR,1595951521,78,-30.18,-50.21,55.09,12.73
Kaitangata,100,NZ,1595951521,78,-46.28,169.85,46.99,4.0
Tuatapere,100,NZ,1595951521,85,-46.13,167.68,43.0,6.02
Peto,24,MX,1595951521,52,20.13,-88.92,91.38,6.53
Westport,1,US,1595951247,52,41.14,-73.36,91.99,5.82
Barrow,90,US,1595951522,86,71.29,-156.79,37.4,23.04
Qaanaaq,0,GL,1595951522,61,77.48,-69.36,43.65,2.44
Zaigrayevo,77,RU,1595951522,82,51.83,108.27,62.6,4.47
Grindavik,75,IS,1595951522,81,63.84,-22.43,51.8,8.05
Listvyagi,56,RU,1595951522,81,53.68,86.95,59.49,1.28
Vostok,8,RU,1595951522,98,46.49,135.88,61.45,2.84
Dikson,7,RU,1595951523,79,73.51,80.55,42.96,17.16
Puerto Ayora,75,EC,1595951523,88,-0.74,-90.35,69.8,13.87
Port Augusta,0,AU,1595951523,86,-32.5,137.77,37.4,6.93
Salalah,75,OM,1595951523,88,17.02,54.09,82.4,8.05
Abnūb,0,EG,1595951523,28,27.27,31.15,96.8,12.75
Hong Gai,20,VN,1595951523,84,20.96,107.09,86.0,6.93
Gorontalo,100,ID,1595951328,86,0.54,123.06,75.04,4.25
Glushkovo,12,RU,1595951524,67,51.34,34.63,76.84,5.77
Pilibanga,53,IN,1595951524,29,29.49,74.08,103.26,8.9
Pevek,42,RU,1595951524,90,69.7,170.31,34.18,8.3
Mataura,100,NZ,1595951524,85,-46.19,168.86,43.0,5.23
Klaksvík,100,FO,1595951524,100,62.23,-6.59,48.2,29.97
Faanui,95,PF,1595951525,81,-16.48,-151.75,77.99,19.04
Okhotsk,98,RU,1595951525,86,59.38,143.3,60.78,0.98
Castro,0,BR,1595951308,48,-24.79,-50.01,75.11,12.73
Yellowknife,75,CA,1595951525,93,62.46,-114.35,64.0,9.17
Imbituba,75,BR,1595951525,88,-28.24,-48.67,64.4,13.87
Henties Bay,0,NA,1595951525,90,-22.12,14.28,57.99,5.01
Letka,35,RU,1595951525,87,59.6,49.42,66.16,3.58
Bethel,1,US,1595951526,58,41.37,-73.41,87.01,5.82
Torbay,75,CA,1595951526,77,47.67,-52.73,64.0,10.29
Haines Junction,100,CA,1595951526,76,60.75,-137.51,46.53,1.9
Vao,97,NC,1595951526,77,-22.67,167.48,72.19,26.04
São João da Barra,0,BR,1595951526,45,-21.64,-41.05,82.4,5.82
Wad Rāwah,89,SD,1595951526,52,15.16,33.14,86.92,11.74
Kapenguria,28,KE,1595951526,92,1.25,35.09,58.77,3.44
San Cristobal,20,VE,1595951526,55,7.77,-72.22,87.8,4.7
Mar del Plata,20,AR,1595951527,70,-38.0,-57.56,48.0,14.99
Codrington,73,AU,1595951527,91,-38.27,141.97,43.0,6.29
Vaini,20,TO,1595951527,88,-21.2,-175.2,68.0,18.34
Kavieng,36,PG,1595951527,72,-2.57,150.8,82.81,10.56
Santa Helena,1,BR,1595951528,40,-2.23,-45.3,91.83,7.43
Decatur,1,US,1595951379,57,39.84,-88.95,80.6,1.7
Kirakira,100,SB,1595951528,82,-10.45,161.92,80.33,4.7
Hithadhoo,95,MV,1595951528,75,-0.6,73.08,82.96,10.11
Vaitape,92,PF,1595951528,79,-16.52,-151.75,78.84,19.04
Aklavik,90,CA,1595951529,87,68.22,-135.01,57.2,4.7
Wagar,96,SD,1595951529,48,16.15,36.2,87.08,7.4
Muzhi,38,RU,1595951529,67,65.37,64.67,52.03,4.43
Smoky Lake,0,CA,1595951529,67,54.12,-112.47,69.42,11.77
Berdigestyakh,100,RU,1595951530,70,62.1,126.7,54.25,3.56
George Town,20,MY,1595951431,88,5.41,100.34,86.0,6.93
Lagoa,0,PT,1595951530,85,39.05,-27.98,74.32,8.95
Sept-Îles,90,CA,1595951530,77,50.2,-66.38,64.0,18.34
Hanstholm,31,DK,1595951530,81,57.12,8.62,61.0,4.0
Hong Kong,0,HK,1595951437,74,22.29,114.16,86.0,3.0
Tetiiv,18,UA,1595951530,53,49.38,29.66,81.41,3.65
Dakar,75,SN,1595951276,66,14.69,-17.44,89.6,9.17
Kikwit,29,CD,1595951531,18,-5.04,18.82,94.82,1.28
New Norfolk,74,AU,1595951531,91,-42.78,147.06,41.0,2.53
Khatanga,0,RU,1595951531,75,71.97,102.5,49.64,0.98
Carnarvon,0,AU,1595951531,82,-24.87,113.63,66.2,19.46
Shebalino,74,RU,1595951531,71,51.29,85.68,56.77,5.79
Yaan,89,NG,1595951531,87,7.38,8.57,78.98,6.35
Albany,81,US,1595951532,76,42.6,-73.97,77.0,6.76
Port Hedland,0,AU,1595951532,51,-20.32,118.57,59.0,8.05
Salta,23,AR,1595951354,39,-24.79,-65.41,48.2,3.36
Mount Gambier,40,AU,1595951532,93,-37.83,140.77,41.0,4.7
Barra Patuca,55,HN,1595951532,79,15.8,-84.28,83.91,12.91
Tataouine,0,TN,1595951532,16,32.93,10.45,95.0,9.17
Hilo,90,US,1595951532,73,19.73,-155.09,73.4,4.56
Isangel,10,VU,1595951532,73,-19.55,169.27,75.2,14.99
Hobart,69,AU,1595951250,93,-42.88,147.33,42.8,4.7
Saint-Pierre,90,RE,1595951533,78,-21.34,55.48,71.6,17.22
East London,0,ZA,1595951345,48,-33.02,27.91,69.17,5.14
Pantai Remis,40,MY,1595951533,94,4.46,100.63,78.8,1.12
Nizhnyaya Tavda,66,RU,1595951533,66,57.67,66.17,55.65,5.59
Fortuna,90,US,1595951533,100,40.6,-124.16,54.0,4.25
Namatanai,69,PG,1595951533,76,-3.67,152.43,80.56,6.02
Riyadh,40,SA,1595951459,12,24.69,46.72,109.4,10.29
Karaton,20,ID,1595951533,74,-6.34,106.1,78.8,2.24
Port Elizabeth,20,ZA,1595951403,88,-33.92,25.57,62.6,16.11
Goderich,0,CA,1595951534,89,43.75,-81.72,75.99,12.91
Norman Wells,75,CA,1595951534,82,65.28,-126.83,59.0,6.93
Vila Franca do Campo,20,PT,1595951534,88,37.72,-25.43,75.2,6.93
Carutapera,13,BR,1595951534,57,-1.2,-46.02,87.22,10.4
Lorengau,45,PG,1595951534,73,-2.02,147.27,81.45,3.49
Airai,32,TL,1595951535,100,-8.93,125.41,52.25,2.98
Maragogi,5,BR,1595951377,69,-9.01,-35.22,79.72,9.57
Urengoy,100,RU,1595951535,71,65.97,78.37,54.16,10.49
Tombouctou,98,ML,1595951535,33,20.0,-3.0,96.04,10.98
Taltal,2,CL,1595951536,44,-25.4,-70.48,66.85,3.76
Miraflores,75,MX,1595951536,63,19.22,-98.81,64.4,4.7
Diego de Almagro,0,CL,1595951536,13,-26.37,-70.05,79.77,7.45
Constitución,0,CL,1595951536,51,-35.33,-72.42,51.19,6.96
Bluefield,90,US,1595951536,94,37.27,-81.22,69.8,8.05
Linhares,1,BR,1595951276,43,-19.39,-40.07,83.05,5.46
Yaya,79,RU,1595951536,89,56.21,86.44,58.1,5.59
Saint-Philippe,90,RE,1595951537,78,-21.36,55.77,71.6,17.22
Dejen,91,ET,1595951537,99,10.17,38.13,56.73,5.19
Clyde River,40,CA,1595951537,87,70.47,-68.59,46.4,9.17
Alugan,100,PH,1595951537,90,12.22,125.48,76.84,5.17
Saskylakh,54,RU,1595951537,79,71.92,114.08,44.71,3.94
Emba,62,KZ,1595951538,40,48.83,58.14,72.48,10.94
Shache,19,CN,1595951538,20,38.42,77.24,80.2,4.79
Zelenogradsk,100,RU,1595951538,57,54.96,20.48,78.8,4.47
Diapaga,100,BF,1595951538,69,12.07,1.79,82.74,6.58
Puerto Madryn,0,AR,1595951330,57,-42.77,-65.04,45.72,10.71
Hasaki,75,JP,1595951538,100,35.73,140.83,70.0,12.75
Padang,40,ID,1595951538,94,-0.95,100.35,75.2,5.82
Uşak Province,0,TR,1595951538,26,38.5,29.42,85.05,20.29
Barra do Piraí,0,BR,1595951539,35,-22.47,-43.83,85.46,3.78
Chifeng,64,CN,1595951338,72,42.27,118.96,70.97,4.9
Cayenne,29,GF,1595951539,52,4.93,-52.33,91.4,8.05
Palu,100,ID,1595951418,81,-0.89,119.87,75.45,2.24
Takoradze,82,GH,1595951539,79,4.88,-1.76,77.81,12.66
Tessalit,26,ML,1595951540,18,20.2,1.01,101.77,0.78
Ancud,90,CL,1595951540,100,-41.87,-73.82,51.01,1.12
Ukiah,1,US,1595951486,63,39.15,-123.21,69.01,1.5
Nosy Varika,100,MG,1595951540,92,-20.58,48.53,65.53,8.97
Mount Isa,0,AU,1595951540,35,-20.73,139.5,57.2,16.11
Chui,21,UY,1595951540,68,-33.7,-53.46,50.54,11.07
Opuwo,0,NA,1595951540,17,-18.06,13.84,78.57,7.27
Port Blair,88,IN,1595951531,80,11.67,92.75,83.68,19.66
Shingū,100,JP,1595951541,93,33.73,135.98,75.49,5.23
Halifax,5,CA,1595951262,73,44.65,-63.57,81.0,10.29
Krechevitsy,75,RU,1595951541,88,58.62,31.4,71.53,3.76
Steamboat Springs,75,US,1595951319,67,40.48,-106.83,63.0,9.17
Sur,40,OM,1595951541,55,22.57,59.53,90.95,13.91
Beatrice,75,US,1595951361,78,40.27,-96.75,78.8,8.05
Polunochnoye,24,RU,1595951542,59,60.87,60.42,58.1,4.36
Apia,41,WS,1595951542,88,-13.83,-171.77,78.01,3.0
Maragheh,40,IR,1595951542,18,37.39,46.24,96.8,9.17
Boa Vista,40,BR,1595951542,66,2.82,-60.67,86.0,5.82
Henderson,1,US,1595951408,11,36.04,-114.98,91.0,1.7
Bathsheba,40,BB,1595951542,83,13.22,-59.52,82.4,21.92
Médéa,0,DZ,1595951542,66,36.26,2.75,86.0,10.29
Seminole,90,US,1595951542,69,28.71,-81.21,88.0,3.36
Alofi,32,NU,1595951543,100,-19.06,-169.92,64.4,1.12
Ostrovnoy,75,RU,1595951543,75,68.05,39.51,60.84,11.59
Narsaq,75,GL,1595951543,81,60.92,-46.05,53.6,6.93
Yulara,0,AU,1595951543,32,-25.24,130.99,53.6,8.05
Siderno,0,IT,1595951543,31,38.28,16.3,91.4,18.34
Hearst,100,CA,1595951543,84,49.68,-83.67,62.83,7.18
Arrecife,20,ES,1595951543,58,28.96,-13.55,82.4,25.28
Karratha,0,AU,1595951544,42,-20.74,116.85,66.72,2.46
Poum,71,NC,1595951544,78,-20.23,164.02,74.28,31.25
Skellefteå,100,SE,1595951348,93,64.75,20.95,62.01,4.7
Novoye Leushino,0,RU,1595951544,85,56.81,40.51,70.02,4.36
Nikolskoye,90,RU,1595951544,93,59.7,30.79,66.2,6.71
Ratnagiri,100,IN,1595951544,82,16.98,73.3,81.93,6.33
Upernavik,100,GL,1595951544,83,72.79,-56.15,43.5,4.85
Kontagora,54,NG,1595951544,80,10.4,5.47,80.83,4.61
Atyrau,32,KZ,1595951447,22,47.12,51.88,86.0,8.95
Waingapu,0,ID,1595951545,73,-9.66,120.26,71.74,11.36
Ketchikan,40,US,1595951545,87,55.34,-131.65,55.4,10.29
Talcahuano,0,CL,1595951545,65,-36.72,-73.12,46.4,8.05
Yar-Sale,49,RU,1595951545,63,66.83,70.83,52.21,10.45
Cabo San Lucas,75,MX,1595951545,78,22.89,-109.91,84.99,11.41
Lompoc,90,US,1595951545,87,34.64,-120.46,57.2,3.36
Pomabamba,2,PE,1595951546,36,-8.83,-77.47,57.61,6.22
Pelotas,40,BR,1595951542,54,-31.77,-52.34,53.6,13.87
Gayéri,99,BF,1595951546,59,12.65,0.49,84.97,10.07
Mareeba,0,AU,1595951546,65,-17.0,145.43,57.0,3.15
Bindura,81,ZW,1595951546,57,-17.3,31.33,59.25,2.73
Kotel'nich,4,RU,1595951546,79,58.31,48.35,67.98,1.52
Rio Grande,40,BR,1595951475,54,-32.03,-52.1,53.6,13.87
Nara,99,JP,1595951547,98,34.69,135.8,79.0,5.39
Plettenberg Bay,2,ZA,1595951547,75,-34.05,23.37,59.54,6.24
Lubao,75,PH,1595951547,88,14.92,120.55,79.0,5.82
Dzhankoy,73,UA,1595951547,69,45.72,34.4,77.77,9.4
Great Bend,90,US,1595951486,88,38.36,-98.76,80.01,6.93
Kumul,0,CN,1595951547,29,42.8,93.45,80.2,10.25
Dunmore East,75,IE,1595951548,55,52.15,-6.99,66.2,11.41
San Quintín,34,MX,1595951548,70,30.48,-115.95,71.2,10.98
Avera,1,US,1595951548,59,33.19,-82.53,91.0,4.7
Nelson Bay,90,AU,1595951548,93,-32.72,152.15,55.4,9.17
Qui Nhon,100,VN,1595951494,83,13.77,109.23,81.84,7.2
Arlit,1,NE,1595951549,18,18.74,7.39,104.18,12.46
Blackwater,0,AU,1595951549,51,-23.58,148.88,51.69,8.5
Evans,1,US,1595951549,55,33.53,-82.13,91.0,6.93
Znamenskoye,80,RU,1595951549,69,57.13,73.83,54.27,6.69
Camacha,75,PT,1595951549,73,33.08,-16.33,73.4,14.99
Tual,99,ID,1595951549,81,-5.67,132.75,78.4,21.56
Tangará,40,BR,1595951549,69,-6.2,-35.8,84.2,17.22
Portland,20,US,1595951111,77,45.52,-122.68,71.01,5.82
Yinchuan,13,CN,1595951550,27,38.47,106.27,86.54,6.87
Bulgan,95,MN,1595951550,77,48.81,103.53,59.02,2.8
Lavrentiya,92,RU,1595951550,79,65.58,-171.0,44.56,6.93
Ginda,34,IN,1595951550,82,30.69,78.49,67.64,1.21
Provideniya,82,RU,1595951551,83,64.38,-173.3,49.3,7.2
Avarua,93,CK,1595951551,94,-21.21,-159.78,68.0,9.17
Chokurdakh,100,RU,1595951551,90,70.63,147.92,41.79,9.6
Leningradskiy,29,RU,1595951551,85,69.38,178.42,35.64,0.34
Orsk,20,RU,1595951551,43,51.2,58.57,73.4,8.95
Kahului,1,US,1595951486,65,20.89,-156.47,78.8,18.34
Haverfordwest,0,GB,1595951551,59,51.8,-4.97,64.99,16.11
Beringovskiy,0,RU,1595951551,87,63.05,179.32,53.78,2.51
Samarai,35,PG,1595951551,88,-10.62,150.67,78.85,5.68
Yangon,75,MM,1595951552,94,16.81,96.16,80.6,4.7
Kyabram,84,AU,1595951552,91,-36.32,145.05,45.0,1.99
Churāchāndpur,100,IN,1595951552,96,24.33,93.67,70.03,1.52
Ambilobe,54,MG,1595951552,71,-13.2,49.05,76.89,1.32
Lakselv,59,NO,1595951552,41,70.05,24.97,75.2,12.75
Ullapool,100,GB,1595951292,90,57.9,-5.16,53.01,5.99
Kalvarija,100,LT,1595951552,82,54.4,23.23,74.68,6.71
Saint George,1,US,1595951393,32,37.1,-113.58,89.01,5.82
Morant Bay,20,JM,1595951553,58,17.88,-76.41,87.8,5.82
Tura,95,IN,1595951553,95,25.52,90.22,75.45,4.7
Waddān,0,LY,1595951553,18,29.16,16.14,95.22,10.16
Geraldton,0,AU,1595951553,87,-28.77,114.6,50.0,8.05
Iskateley,0,RU,1595951553,65,67.68,53.15,59.38,13.53
Aksu,34,CN,1595951553,17,41.12,80.26,82.67,4.03
Saint Lawrence,0,MT,1595951553,35,36.06,14.2,89.6,8.05
Hay River,75,CA,1595951554,67,60.82,-115.8,62.6,5.82
Caraballeda,14,VE,1595951554,60,10.61,-66.85,82.0,4.7
Flinders,70,AU,1595951554,70,-34.58,150.86,59.0,3.0
Mariehamn,71,AX,1595951264,77,60.1,19.93,66.2,11.41
Walla Walla,1,US,1595951467,30,46.06,-118.34,81.0,6.93
Wausau,1,US,1595951554,64,44.96,-89.63,75.2,10.29
Natal,40,BR,1595951555,58,-5.79,-35.21,84.2,23.04
Dunedin,100,NZ,1595951555,67,-45.87,170.5,48.99,4.0
Newtownards,36,GB,1595951453,72,54.59,-5.69,60.01,9.17
Yeppoon,0,AU,1595951555,87,-23.13,150.73,46.4,3.36
Ilulissat,75,GL,1595951555,81,69.22,-51.1,44.6,10.29
San Patricio,40,MX,1595951555,74,19.22,-104.7,86.0,6.93
Teya,81,RU,1595951555,75,60.38,92.63,55.67,0.72
Port Hardy,75,CA,1595951473,77,50.7,-127.42,59.0,2.24
Upata,46,VE,1595951556,74,8.01,-62.4,86.0,1.01
Katghora,100,IN,1595951556,77,22.5,82.55,80.94,3.02
Thaton,100,MM,1595951556,84,16.92,97.37,80.96,2.42
Cherskiy,65,RU,1595951556,82,68.75,161.3,35.67,8.52
Pangnirtung,90,CA,1595951556,100,66.15,-65.71,48.2,14.99
Pisco,90,PE,1595951556,77,-13.7,-76.22,61.0,3.36
Odienné,100,CI,1595951556,83,9.51,-7.57,79.65,2.73
Pontian Kecil,20,MY,1595951557,94,1.48,103.39,77.0,2.24
Debre Sīna,98,ET,1595951557,96,9.85,39.77,56.25,1.68
Barreirinha,0,BR,1595951557,32,-2.79,-57.07,95.65,5.59
Choma,7,ZM,1595951557,51,-16.81,26.95,58.5,5.57
Livadiya,38,RU,1595951557,92,42.87,132.68,64.56,4.97
Nanortalik,100,GL,1595951557,92,60.14,-45.24,47.39,4.88
Wahiawā,75,US,1595951472,83,21.5,-158.02,78.01,11.27
Sitka,75,US,1595951558,87,57.05,-135.33,55.4,1.9
North Bend,90,US,1595951336,93,43.41,-124.22,59.0,9.17
Bilma,17,NE,1595951558,18,18.69,12.92,104.49,11.97
Chodavaram,40,IN,1595951558,74,17.83,82.95,87.8,4.7
Vanimo,46,PG,1595951558,79,-2.67,141.3,78.39,2.51
Hervey Bay,0,AU,1595951558,62,-25.3,152.85,55.0,4.0
Manado,40,ID,1595951558,94,1.49,124.85,77.0,2.24
Hamilton,40,US,1595951559,54,39.18,-84.53,84.0,4.7
Evensk,100,RU,1595951559,93,61.95,159.23,51.57,4.0
Kaohsiung City,75,TW,1595951559,88,22.62,120.31,78.8,5.82
Ponta do Sol,20,PT,1595951559,50,32.67,-17.1,78.8,16.11
San Francisco,40,US,1595951430,77,37.77,-122.42,60.01,12.75
Kwang Binh,70,VN,1595951559,74,17.48,106.6,82.69,6.69
Mola di Bari,0,IT,1595951559,40,41.06,17.09,89.01,6.93
Yatou,40,CN,1595951559,95,37.15,122.38,68.14,1.99
São Francisco,9,BR,1595951560,30,-15.95,-44.86,86.31,6.2
Saldanha,0,ZA,1595951560,63,-33.01,17.94,60.8,14.99
Beloha,57,MG,1595951560,81,-25.17,45.05,63.55,14.03
Eyl,41,SO,1595951560,54,7.98,49.82,85.87,21.25
Shimokizukuri,39,JP,1595951560,91,40.81,140.39,66.99,4.0
Siemiatycze,84,PL,1595951560,44,52.43,22.86,82.99,9.22
Taunggyi,78,MM,1595951560,100,20.78,97.03,64.71,2.44
Husavik,40,IS,1595951561,66,66.04,-17.34,51.8,11.41
La Resolana,40,MX,1595951561,74,19.6,-104.43,86.0,6.93
Pasni,0,PK,1595951561,82,25.26,63.47,84.43,17.47
Marfino,16,RU,1595951561,47,55.7,37.38,80.6,6.71
Katsuura,75,JP,1595951561,100,35.13,140.3,80.01,3.36
Farafangana,90,MG,1595951561,70,-22.82,47.83,68.61,5.93
Port Lincoln,0,AU,1595951561,86,-34.73,135.87,51.96,8.37
Tilichiki,0,RU,1595951562,91,60.47,166.1,47.66,4.03
Jérémie,52,HT,1595951562,71,18.65,-74.12,84.31,7.85
Celestún,79,MX,1595951562,64,20.87,-90.4,87.85,6.73
Ucluelet,90,CA,1595951508,93,48.93,-125.55,55.99,6.93
Lata,0,PT,1595951562,57,40.16,-8.33,84.0,8.01
Bolama,75,GW,1595951562,78,11.58,-15.47,82.4,12.75
Mizdah,0,LY,1595951562,16,31.45,12.98,93.78,13.33
Bandarbeyla,37,SO,1595951563,80,9.49,50.81,78.89,28.36
Birao,99,CF,1595951563,85,10.28,22.79,76.42,4.23
Tonstad,98,NO,1595951563,93,58.66,6.72,54.0,1.99
Moroni,75,KM,1595951563,83,-11.7,43.26,75.2,17.22
Mudgee,90,AU,1595951563,100,-32.59,149.59,46.0,5.82
Mankāchar,92,IN,1595951563,84,25.53,89.87,81.84,6.89
Sturgeon Falls,20,CA,1595951564,68,46.36,-79.93,69.8,11.41
Srednekolymsk,64,RU,1595951564,69,67.45,153.68,44.58,4.05
Daultala,11,PK,1595951564,66,33.19,73.14,89.6,4.7
Waynesville,53,US,1595951564,91,35.49,-82.99,81.0,1.59
Alekseyevsk,0,RU,1595951564,92,57.84,108.35,59.38,4.12
Oriximiná,0,BR,1595951564,36,-1.77,-55.87,92.86,8.08
Kurumkan,100,RU,1595951564,84,54.3,110.3,61.09,2.95
Suwannaphum,100,TH,1595951565,76,15.6,103.8,84.99,7.85
Makakilo City,75,US,1595951565,78,21.35,-158.09,78.8,15.48
Charyshskoye,100,RU,1595951565,83,51.4,83.56,58.75,6.93
Verkhoyansk,78,RU,1595951565,78,67.54,133.38,46.81,5.1
Mabaruma,74,GY,1595951565,54,8.2,-59.78,91.36,3.15
Coyhaique,83,CL,1595951368,64,-45.58,-72.07,44.6,14.99
Kisangani,75,CD,1595951422,74,0.52,25.2,82.4,4.7
Los Llanos de Aridane,40,ES,1595951566,69,28.66,-17.92,77.0,16.11
Bitung,40,ID,1595951566,94,1.45,125.18,77.0,2.24
Oyem,57,GA,1595951566,78,1.6,11.58,76.35,2.48
Naze,20,JP,1595951566,94,28.37,129.48,80.6,2.24
Sokol,48,RU,1595951566,73,59.46,40.12,70.97,3.71
Ahar,17,IR,1595951566,37,38.48,47.07,82.54,4.54
Half Moon Bay,90,US,1595951567,93,37.46,-122.43,64.99,4.7
Muros,4,ES,1595951567,67,42.78,-9.06,73.99,14.0
Saint-Joseph,90,RE,1595951567,78,-21.37,55.62,71.6,17.22
Kampot,40,KH,1595951567,79,10.62,104.18,84.2,5.82
Dibulla,40,CO,1595951568,55,11.27,-73.31,91.4,11.41
Grand Gaube,2,MU,1595951568,78,-20.01,57.66,71.01,5.01
Pangody,97,RU,1595951568,69,65.85,74.49,54.68,11.01
Wasilla,1,US,1595951568,100,61.58,-149.44,55.4,0.54
Chiselet,83,RO,1595951568,33,44.18,26.85,91.99,3.36
Sulphur,90,US,1595951568,94,30.24,-93.38,82.0,6.93
Linjiang,79,CN,1595951568,86,41.81,126.91,65.43,1.45
La Ronge,20,CA,1595951569,64,55.1,-105.28,69.8,5.82
Honiara,75,SB,1595951569,94,-9.43,159.95,77.0,2.24
Paso de los Toros,20,UY,1595951569,60,-32.82,-56.52,50.0,12.75
Pedernales,20,DO,1595951569,55,18.04,-71.74,91.4,9.17
Kirkwall,75,GB,1595951569,81,58.98,-2.96,53.6,32.21
Jumla,100,NP,1595951569,71,29.27,82.18,63.27,3.36
Urusha,87,RU,1595951569,88,54.05,122.9,66.31,2.82
Trabzon Province,75,TR,1595951569,78,40.92,39.83,78.8,4.7
Qaqortoq,75,GL,1595951570,81,60.72,-46.03,53.6,6.93
Chunskiy,100,RU,1595951570,66,56.08,99.63,61.52,2.55
Serebryansk,90,KZ,1595951570,82,49.69,83.29,62.6,22.37
Zhigansk,0,RU,1595951570,74,66.77,123.37,46.17,19.77
Lisala,86,CD,1595951570,69,2.15,21.52,81.95,2.39
Ribeira Grande,40,PT,1595951570,83,38.52,-28.7,77.0,5.82
Tasiilaq,40,GL,1595951570,71,65.61,-37.64,50.0,9.17
Toamasina,75,MG,1595951570,94,-18.17,49.38,69.8,13.87
Kasongo,0,CD,1595951570,20,-4.45,26.67,87.15,2.68
Dingle,100,PH,1595951571,89,11.0,122.67,75.83,1.79
Mahibadhoo,59,MV,1595951571,78,3.78,72.97,83.05,14.09
Bilibino,100,RU,1595951571,70,68.05,166.44,47.86,2.42
São Filipe,92,CV,1595951571,77,14.9,-24.5,77.63,6.93
Waipawa,100,NZ,1595951571,81,-41.41,175.52,50.0,2.24
Zhicheng,5,CN,1595951571,85,30.3,111.5,82.0,2.66
Ruangwa,55,TZ,1595951571,45,-10.07,38.93,76.48,4.16
Belyy Yar,0,RU,1595951572,82,53.6,91.39,60.8,2.24
Kieta,100,PG,1595951572,75,-6.22,155.63,79.23,2.42
Sarangani,100,PH,1595951572,75,5.4,125.46,83.79,11.7
Deputatsky,97,RU,1595951572,81,69.3,139.9,40.64,9.84
Ahipara,75,NZ,1595951572,82,-35.17,173.17,53.1,6.85
Parabel',6,RU,1595951572,70,58.7,81.48,52.16,4.68
Kavaratti,92,IN,1595951572,76,10.57,72.64,82.94,18.59
Rock Sound,1,BS,1595951572,78,24.9,-76.2,82.38,13.0
Berlevåg,51,NO,1595951572,52,70.86,29.09,69.8,11.41
Kamaishi,100,JP,1595951573,92,39.27,141.88,66.76,6.55
Krasnosel'kup,97,RU,1595951573,74,65.7,82.47,56.25,13.6
Znamenka,0,RU,1595951573,57,52.42,41.43,74.19,5.46
Morón,0,AR,1595951539,45,-34.65,-58.62,52.0,11.41
Severodvinsk,20,RU,1595951573,53,64.56,39.83,71.6,4.47
Hambantota,40,LK,1595951573,94,6.12,81.12,80.6,3.36
Greenwood,1,US,1595951574,66,34.17,-82.12,90.0,6.93
Praia,40,CV,1595951574,70,14.92,-23.51,84.2,13.87
Manicoré,0,BR,1595951574,31,-5.81,-61.3,95.34,4.43
Gryazi,0,RU,1595951574,30,52.5,39.94,82.4,8.95
Hailar,94,CN,1595951574,87,49.2,119.7,66.0,9.35
Polewali,91,ID,1595951574,81,-3.43,119.34,75.11,5.95
Irpa Irpa,0,BO,1595951574,22,-17.72,-66.27,68.0,4.7
‘Āhuimanu,40,US,1595951574,78,21.44,-157.84,78.8,11.41
Caravelas,40,BR,1595951574,76,-17.71,-39.25,75.67,7.2
Dengzhou,0,CN,1595951575,85,37.81,120.75,72.73,6.2
Vardø,90,NO,1595951575,100,70.37,31.11,53.6,9.17
Nizwá,34,OM,1595951575,51,22.93,57.53,88.39,2.19
Ust'-Ilimsk,99,RU,1595951560,74,58.0,102.66,59.68,2.1
Yatsuomachi-higashikumisaka,100,JP,1595951575,96,36.57,137.13,75.0,1.99
Pyrzyce,55,PL,1595951576,41,53.15,14.89,82.99,13.87
Nokaneng,0,BW,1595951576,25,-19.67,22.27,67.84,4.36
Dwārka,100,IN,1595951576,77,22.24,68.97,85.48,19.24
Slave Lake,1,CA,1595951576,82,55.28,-114.77,68.0,8.05
Broome,90,US,1595951496,73,42.25,-75.83,75.99,6.93
Iqaluit,75,CA,1595951576,55,63.75,-68.51,64.4,10.29
Morondava,100,MG,1595951577,56,-20.28,44.28,73.09,8.21
Camopi,0,GF,1595951577,48,3.17,-52.32,90.73,5.14
Tahe,4,CN,1595951577,76,52.33,124.73,66.92,2.64
Taoudenni,36,ML,1595951577,17,22.68,-3.98,108.3,14.05
Puerto Palomas,1,MX,1595951577,39,31.77,-107.62,82.4,10.29
Reni,0,UA,1595951577,21,45.46,28.29,91.0,12.75
Bogale,69,MM,1595951577,83,16.28,95.4,82.33,5.06
Zhangaözen,0,KZ,1595951577,14,43.3,52.8,85.41,11.52
Cabo Rojo,27,PR,1595951578,69,18.09,-67.15,91.0,3.0
Buala,100,SB,1595951578,79,-8.14,159.59,81.54,5.95
Pozo Colorado,100,PY,1595951578,74,-23.49,-58.8,61.57,10.83
Kaseda-shirakame,62,JP,1595951578,100,31.42,130.32,75.0,1.99
Merauke,100,ID,1595951578,86,-8.47,140.33,77.13,16.67
Muhos,83,FI,1595951578,50,64.81,25.99,75.99,6.93
Petropavlovsk-Kamchatskiy,97,RU,1595951578,100,53.05,158.65,55.4,4.47
Teknāf,100,BD,1595951578,83,20.86,92.31,82.6,5.53
Coquimbo,0,CL,1595951578,72,-29.95,-71.34,59.0,9.17
Tiznit Province,1,MA,1595951579,28,29.58,-9.5,92.16,9.31
Dalton,1,US,1595951420,58,34.77,-84.97,87.01,2.93
Antofagasta,20,CL,1595951535,67,-23.65,-70.4,57.2,2.24
Yarmouth,1,US,1595951579,55,41.71,-70.23,91.4,12.75
Bucerías,75,MX,1595951579,83,20.75,-105.33,80.6,3.36
Hoquiam,90,US,1595951579,87,46.98,-123.89,57.99,11.41
Utrān,75,IN,1595951579,83,21.23,72.87,84.2,10.29
Mehamn,29,NO,1595951579,56,71.04,27.85,69.8,5.82
Karligan,100,PH,1595951580,79,14.97,122.05,80.28,1.59
Asău,34,RO,1595951580,70,46.43,26.4,78.01,0.85
Kon Tum,80,VN,1595951580,91,14.35,108.0,71.67,1.45
Assiut,0,EG,1595951580,28,27.18,31.18,96.8,12.75
Kishtwār,4,IN,1595951580,72,33.32,75.77,67.68,0.72
Champasak,22,LA,1595951580,84,14.75,106.0,76.51,1.7
Nanlong,54,CN,1595951581,84,31.35,106.06,78.49,2.51
Fort Myers Beach,27,US,1595951581,75,26.45,-81.95,89.01,1.99
Balabac,97,PH,1595951581,75,7.99,117.06,83.07,6.69
Kasongo-Lunda,0,CD,1595951581,18,-6.47,16.82,92.61,2.51
Solnechnyy,9,RU,1595951581,88,50.72,136.63,66.56,3.51
Omboué,12,GA,1595951581,70,-1.57,9.26,77.72,12.48
Sampit,57,ID,1595951581,93,-2.53,112.95,73.38,2.77
Nālūt,0,LY,1595951582,13,30.33,10.85,97.57,11.01
Ziro,97,IN,1595951582,100,27.63,93.83,59.86,1.03
Skibbereen,75,IE,1595951582,55,51.55,-9.27,62.6,12.75
Hurghada,10,EG,1595951434,46,27.26,33.81,89.62,4.36
Moree,90,AU,1595951582,93,-29.47,149.85,51.8,3.76
Planadas,75,CO,1595951582,51,3.2,-75.65,84.2,3.36
West Wendover,1,US,1595951582,43,40.74,-114.07,73.4,5.82
Chu,51,KZ,1595951583,34,43.6,73.76,81.45,12.71
Iroquois Falls,75,CA,1595951583,68,48.77,-80.68,69.8,5.82
San Policarpo,100,PH,1595951583,90,12.18,125.51,77.13,5.5
Leh,3,IN,1595951583,24,34.17,77.58,68.2,7.34
Velikiy Ustyug,75,RU,1595951583,81,60.76,46.31,68.23,1.16
Ubari,0,LY,1595951583,12,26.59,12.78,98.22,12.3
Piaçabuçu,37,BR,1595951583,81,-10.41,-36.43,76.86,14.67
Karasjok,57,NO,1595951583,41,69.47,25.51,75.2,12.75
Marmaris,0,TR,1595951583,58,36.85,28.27,90.0,8.05
Storslett,75,NO,1595951584,44,69.77,21.02,75.2,19.46
Charters Towers,0,AU,1595951584,46,-20.1,146.27,50.9,6.82
Kousséri,20,CM,1595951584,55,12.08,15.03,91.4,11.41
Sobolevo,12,RU,1595951584,81,54.43,31.9,74.61,5.66
Tula,11,RU,1595951575,64,54.2,37.61,74.3,6.4
Ust-Nera,35,RU,1595951584,67,64.57,143.2,54.93,6.8
Lingao,24,CN,1595951584,74,19.91,109.69,84.92,2.24
Palmerston North,100,NZ,1595951585,96,-40.35,175.62,46.0,0.89
Guangyuan,99,CN,1595951585,90,32.44,105.82,77.0,0.36
Buchanan,75,LR,1595951585,78,5.88,-10.05,80.6,9.17
Marataizes,0,BR,1595951585,57,-21.04,-40.82,77.56,11.01
Road Town,40,VG,1595951352,70,18.42,-64.62,89.6,13.87
Palmer,75,US,1595951585,52,42.16,-72.33,90.0,14.99
Aykhal,90,RU,1595951585,71,66.0,111.5,51.8,6.71
Viesca,75,MX,1595951585,94,25.35,-102.8,73.0,13.6
Bubaque,100,GW,1595951585,91,11.28,-15.83,77.32,15.43
Zile,40,TR,1595951585,42,40.3,35.89,80.6,18.34
Laas,43,IT,1595951586,41,46.62,10.7,93.2,10.29
Puerto Rondón,64,CO,1595951586,74,6.28,-71.1,85.26,1.59
Kruisfontein,0,ZA,1595951586,74,-34.0,24.73,63.0,6.29
Ordynskoye,31,RU,1595951586,87,54.37,81.9,58.12,5.64
Cranbrook,20,CA,1595951586,43,49.5,-115.77,69.8,2.86
Cabedelo,40,BR,1595951343,69,-6.98,-34.83,80.6,11.41
Kargil,60,IN,1595951587,35,34.57,76.1,65.01,7.23
Osakarovka,94,KZ,1595951587,77,50.56,72.57,60.13,8.52
Den Helder,20,NL,1595951569,55,52.96,4.76,64.4,21.92
Bara,10,NG,1595951587,52,10.37,10.73,88.41,4.14
Vila Velha,20,BR,1595951587,57,-20.33,-40.29,80.6,13.87
Nome,90,US,1595951587,93,64.5,-165.41,50.0,18.34
San Jose,75,US,1595951455,77,37.34,-121.89,66.0,3.09
Mitzic,66,GA,1595951587,79,0.78,11.55,76.32,3.78
Rawson,0,AR,1595951588,57,-43.3,-65.1,45.7,10.29
Port-Gentil,40,GA,1595951588,74,-0.72,8.78,80.6,15.97
Guiren,28,CN,1595951588,59,33.67,118.19,72.0,5.77
Darhan,24,MN,1595951588,70,49.49,105.92,62.89,2.53
Brae,75,GB,1595951588,87,60.4,-1.35,60.8,4.7
Te Anau,100,NZ,1595951588,90,-45.42,167.72,40.87,2.3
Sosnovo-Ozerskoye,92,RU,1595951589,96,52.52,111.54,58.57,6.67
Santander,90,ES,1595951589,100,43.46,-3.8,68.0,5.82
Yabēlo,100,ET,1595951589,73,4.88,38.08,62.67,12.15
Miquelon,75,PM,1595951589,88,47.1,-56.38,62.6,5.82
Trujillo,15,PE,1595951589,66,-8.12,-79.03,65.91,8.43
Ahome,90,MX,1595951589,83,25.92,-109.18,79.0,14.99
Praia da Vitória,20,PT,1595951589,62,38.73,-27.07,84.2,11.41
Cabcab,100,PH,1595951590,79,13.63,124.05,80.55,5.48
Nabire,83,ID,1595951590,90,-3.37,135.48,75.47,3.83
Barranca,32,PE,1595951590,66,-10.75,-77.77,65.25,8.28
Lethem,58,GY,1595951590,53,3.38,-59.8,89.46,5.14
Djambala,9,CG,1595951591,34,-2.54,14.75,86.63,5.99
Kolokani,92,ML,1595951591,68,13.57,-8.03,82.99,7.74
Belle Fourche,1,US,1595951591,53,44.67,-103.85,75.99,10.29
Pemangkat,99,ID,1595951591,79,1.17,108.97,79.05,3.09
Ingham,40,US,1595951591,54,42.6,-84.38,81.0,4.7
Sibolga,100,ID,1595951591,89,1.74,98.78,73.96,8.41
Loukhi,50,RU,1595951591,50,66.08,33.04,70.81,4.03
Nantucket,1,US,1595951306,78,41.28,-70.1,81.0,14.99
Mackenzie,70,CA,1595951591,47,55.3,-123.17,66.61,2.93
Ifanadiana,100,MG,1595951592,89,-21.3,47.63,59.45,1.19
Albertville,40,US,1595951592,55,34.27,-86.21,86.0,3.36
Sakakah,40,SA,1595951592,8,29.97,40.21,114.8,6.93
Pringsewu,87,ID,1595951592,92,-5.36,104.97,72.66,3.38
Mayor Pablo Lagerenza,34,PY,1595951592,49,-19.93,-60.77,70.86,15.32
Porgera,66,PG,1595951592,100,-5.47,143.2,37.44,0.67
Nidadavole,40,IN,1595951593,69,16.92,81.67,82.4,4.7
Amazar,89,RU,1595951593,89,53.86,120.88,66.09,2.86
Naberera,75,TZ,1595951593,56,-4.2,36.93,66.42,11.61
Alora,0,ES,1595951593,69,36.82,-4.71,96.01,14.99
Flin Flon,5,CA,1595951593,72,54.77,-101.86,64.4,4.7
Purpe,93,RU,1595951593,90,64.48,76.69,53.01,11.9
Svetlaya,84,RU,1595951593,91,46.54,138.33,63.45,4.92
Okitipupa,88,NG,1595951593,72,6.5,4.78,80.22,8.86
High Prairie,89,CA,1595951594,89,55.43,-116.49,68.02,8.84
Ampanihy,18,MG,1595951594,80,-24.7,44.75,63.61,13.71
Ahvāz,40,IR,1595951594,34,31.32,48.67,107.6,4.7
Bereda,67,ES,1595951594,72,43.27,-7.54,70.0,11.01
Todos Santos,98,MX,1595951594,81,23.45,-110.22,75.0,5.01
Omsukchan,100,RU,1595951594,73,62.53,155.8,60.69,6.29
Portmore,20,JM,1595951366,58,17.97,-76.87,87.8,5.82
Pombal,0,BR,1595951407,21,-6.77,-37.8,92.41,10.45
Hokitika,100,NZ,1595951595,79,-42.72,170.97,50.05,6.15
Chazuta,40,PE,1595951595,66,-6.57,-76.14,84.2,3.36
Mae Sai,20,TH,1595951595,94,20.43,99.88,79.0,5.82
